{"@id":"https://w3id.org/boltontext","type":"FeatureCollection","@context":"https://w3id.org/locolligo/contexts/linkedplaces.jsonld","features":[{"@id":"991003925884803496","type":"Feature","properties":{"title":"Chronicvm, scriptvræ sacræ avthoritate constitvtvm :cvi accessit eivsdem Sacræ Scripturæ concentus / authore Hvgone Brovgthono, Anglo ..."},"geometry":{"type":"Point","coordinates":[50.110644,8.682092]}},{"@id":"991003932482903496","type":"Feature","properties":{"title":"Scepticismus debellatus :seu Humanæ cognitionis ratio ab imis radicibus explicata; ejusdem certitudo adversus scepticos quosque veteres ac novos ..."},"geometry":{"type":"Point","coordinates":[52.159475,4.490884]}},{"@id":"991003938799703496","type":"Feature","properties":{"title":"Tomus primus[-quartus] omnium operum Reverendi Patris D. Martini Lutheri ..."},"geometry":{"type":"Point","coordinates":[50.928172,11.587936]}},{"@id":"991003939299803496","type":"Feature","properties":{"title":"Basilica chymica, pluribus selectis & secretissimis propria manuali experientia approbatis descriptionibus, & vsu remediorum chymicorum selectissimorum aucta /a Ioan. Hartmanno ... edita a Johanne Michaelis ... et Georg. Everhardo Hartmanno ..."},"geometry":{"type":"Point","coordinates":[46.201756,6.146601]}},{"@id":"991003940598203496","type":"Feature","properties":{"title":"Some considerations touching the style of the H. Scriptures :extracted from several parts of a discourse (concerning divers particulars belonging to the Bible) written divers years since to a friend /by the Honorable Robert Boyle ..."},"geometry":{"type":"Point","coordinates":[51.507336,-0.12765]}},{"@id":"991003941693603496","type":"Feature","properties":{"title":"A reply to the observer on Seasonable remarks ..."},"geometry":{"type":"Point","coordinates":[53.349801,-6.260296]}},{"@id":"991003941695103496","type":"Feature","properties":{"title":"The whole booke of psalmes /collected into English meeter by Thomas Sternhold, Iohn Hopkins and others, conferred with the Hebrue, with apt notes to sing them withall ..."},"geometry":{"type":"Point","coordinates":[51.507336,-0.12765]}},{"@id":"991003942691803496","type":"Feature","properties":{"title":"The mantle thrown off :or, The Irish-man dissected /in a letter from a gentleman to his friend in London ..."},"geometry":{"type":"Point","coordinates":[53.349801,-6.260296]}},{"@id":"991003942695603496","type":"Feature","properties":{"title":"Constantius the Apostate :being a short account of his life, and the sense of the primitive Christians about his succession ... being a full answer to a late pamphlet, intituled Julian the Apostate, &c. ..."},"geometry":{"type":"Point","coordinates":[51.507336,-0.12765]}},{"@id":"991003942696103496","type":"Feature","properties":{"title":"De nupero schismate Anglicano parænesis ad exteros tam reformatos quam etiam pontificios quâ, jura episcoporum vetera, eorundemque a magistratu seculari independentia omnibus asserenda commendantur ... /ab Henrico Dodwello ..."},"geometry":{"type":"Point","coordinates":[51.507336,-0.12765]}},{"@id":"991003942697003496","type":"Feature","properties":{"title":"Historia ecclesiastica :continens religionis propagatae gesta, quæ à temporibus Karoli Magni, vsque ad Henricvm IIII acciderunt, in ecclesia non tam Hambvrgensi quàm Bremensi, vicinisq́ue locis septentrionalibus ... eivsdem avctoris libellvs De sitv Daniæ ... /cura ac labore Erpoldi Lindenbrvch."},"geometry":{"type":"Point","coordinates":[52.159475,4.490884]}},{"@id":"991003942697403496","type":"Feature","properties":{"title":"Historiæ de controversiis, quae Pelagivs eivsqve reliquiæ moverunt :libri septem."},"geometry":{"type":"Point","coordinates":[52.37308,4.892453]}},{"@id":"991003947498903496","type":"Feature","properties":{"title":"[Kyrou paideia] :or, The institution and life of Cyrus the Great /written by that famous philosopher and general, Xenophon of Athens. and from the original Greek made English, the first four books by Francis Digby ... the four last by John Norris ..."},"geometry":{"type":"Point","coordinates":[51.507336,-0.12765]}},{"@id":"991003947499003496","type":"Feature","properties":{"title":"Cyropædia :or, The institution of Cyrus ... in two volumes. Vol. I[-Vol. II] /by Xenophon ; translated from the Greek by the late Honourable Maurice Ashley Esq; to which is prefixed, a preface, by way of dedication, to the Right Honourable the Lady Elizabeth Harris ..."},"geometry":{"type":"Point","coordinates":[53.349801,-6.260296]}},{"@id":"991003948293903496","type":"Feature","properties":{"title":"The office and authority of a justice of peace for Ireland :collected from the books of common law written on that subject, as also from all the acts of parliament relating to that office ; as well those in force by Sir Edward Poyning's law, as those made in this kingdom, to the end of the first (with an appendix of the second) session of this present parliament ... /by Matt. Dutton ..."},"geometry":{"type":"Point","coordinates":[53.349801,-6.260296]}},{"@id":"991003948295803496","type":"Feature","properties":{"title":"Idea historiæ literariæ Danorum :in duas partes divisa, quarum prior Danorum linguam, scholas, gymnasia, academias, collegia academica, honores academicos, professores, studiosos, bibliothecas, bibliothecarios, typographea et bibliopolia breviter recenset ..."},"geometry":{"type":"Point","coordinates":[53.550341,10.000654]}},{"@id":"991003948297103496","type":"Feature","properties":{"title":"De rebus gestis Alexandri Magni /cum commentariis Raderi ..."},"geometry":{"type":"Point","coordinates":[52.159475,4.490884]}},{"@id":"991003948298103496","type":"Feature","properties":{"title":"Orationes /ex recensione Ioannis Georgii Graevii ..."},"geometry":{"type":"Point","coordinates":[52.37308,4.892453]}},{"@id":"991003948298403496","type":"Feature","properties":{"title":"Seneca's Morals by way of abstract :of benefits. Part I. /by R. L'Estrange."},"geometry":{"type":"Point","coordinates":[51.507336,-0.12765]}},{"@id":"991003948298603496","type":"Feature","properties":{"title":"Rvdimenta lingvæ Arabicae :accedunt eiusdem Praxis grammatica, & consilium de studio Arabico feliciter instituendo."},"geometry":{"type":"Point","coordinates":[48.85889,2.320041]}},{"@id":"991003948298703496","type":"Feature","properties":{"title":"Xenophon's history of the affairs of Greece :in seven books : being a continuation of the Peloponnesian War; from the time where Thucydides ends, to the battel at Mantinea. to which is prefixed an abstract of Thucydides, and a brief account of the land and naval forces of the ancient Greeks /translated from the Greek, by John Newman."},"geometry":{"type":"Point","coordinates":[51.507336,-0.12765]}}],"indexing":{"@type":"Dataset","name":"boltontext","description":"","license":"https://creativecommons.org/licenses/by/4.0/","identifier":"https://w3id.org/boltontext","temporalCoverage":"1066/2022","spatialCoverage":{"@type":"GeoShape","box":"0.580101 0.00149 60.355 9.78667","geo":{"@type":"GeoShape","box":"0.12765 46.201756 11.587936 53.550341"}}}}